{
"type": "FeatureCollection",
"crs": { "type": "name", "properties": { "name": "urn:ogc:def:crs:OGC:1.3:CRS84" } },
"features": [
{ "type": "Feature", "properties": { "OBJECTID": 1, "state": "VIC", "name": "Dooen" }, "geometry": { "type": "Point", "coordinates": [ 142.267913, -36.630856 ] } },
{ "type": "Feature", "properties": { "OBJECTID": 2, "state": "VIC", "name": "Altona" }, "geometry": { "type": "Point", "coordinates": [ 144.791148, -37.845629 ] } },
{ "type": "Feature", "properties": { "OBJECTID": 3, "state": "TAS", "name": "Brighton Transport Hub" }, "geometry": { "type": "Point", "coordinates": [ 147.233257, -42.719874 ] } },
{ "type": "Feature", "properties": { "OBJECTID": 4, "state": "TAS", "name": "Burnie Freight Hub" }, "geometry": { "type": "Point", "coordinates": [ 145.908024, -41.053693 ] } },
{ "type": "Feature", "properties": { "OBJECTID": 5, "state": "VIC", "name": "Somerton" }, "geometry": { "type": "Point", "coordinates": [ 144.942543, -37.640394 ] } },
{ "type": "Feature", "properties": { "OBJECTID": 6, "state": "VIC", "name": "Dynon" }, "geometry": { "type": "Point", "coordinates": [ 144.922271, -37.805238 ] } },
{ "type": "Feature", "properties": { "OBJECTID": 7, "state": "VIC", "name": "Donald" }, "geometry": { "type": "Point", "coordinates": [ 142.972259, -36.352811 ] } },
{ "type": "Feature", "properties": { "OBJECTID": 8, "state": "VIC", "name": "Merbein" }, "geometry": { "type": "Point", "coordinates": [ 142.060409, -34.170097 ] } },
{ "type": "Feature", "properties": { "OBJECTID": 9, "state": "VIC", "name": "Maryvale" }, "geometry": { "type": "Point", "coordinates": [ 146.445927, -38.189208 ] } },
{ "type": "Feature", "properties": { "OBJECTID": 10, "state": "WA", "name": "West Kalgoorlie (Aurizon)" }, "geometry": { "type": "Point", "coordinates": [ 121.427548, -30.776671 ] } },
{ "type": "Feature", "properties": { "OBJECTID": 11, "state": "WA", "name": "Fremantle (Intermodal Group)" }, "geometry": { "type": "Point", "coordinates": [ 115.741957, -32.050369 ] } },
{ "type": "Feature", "properties": { "OBJECTID": 12, "state": "WA", "name": "Kewdale-Welshpool (Pacific National)" }, "geometry": { "type": "Point", "coordinates": [ 115.970501, -31.991748 ] } },
{ "type": "Feature", "properties": { "OBJECTID": 13, "state": "WA", "name": "Forrestfield (Intermodal Group)" }, "geometry": { "type": "Point", "coordinates": [ 115.989783, -31.968278 ] } },
{ "type": "Feature", "properties": { "OBJECTID": 14, "state": "WA", "name": "Kwinana (Aurizon)" }, "geometry": { "type": "Point", "coordinates": [ 115.782976, -32.23618 ] } },
{ "type": "Feature", "properties": { "OBJECTID": 15, "state": "VIC", "name": "Warrnambool" }, "geometry": { "type": "Point", "coordinates": [ 142.45801, -38.372177 ] } },
{ "type": "Feature", "properties": { "OBJECTID": 16, "state": "SA", "name": "Islington" }, "geometry": { "type": "Point", "coordinates": [ 138.577658, -34.866183 ] } },
{ "type": "Feature", "properties": { "OBJECTID": 17, "state": "SA", "name": "Penfield" }, "geometry": { "type": "Point", "coordinates": [ 138.590756, -34.6951 ] } },
{ "type": "Feature", "properties": { "OBJECTID": 18, "state": "SA", "name": "Gillman" }, "geometry": { "type": "Point", "coordinates": [ 138.517242, -34.830136 ] } },
{ "type": "Feature", "properties": { "OBJECTID": 19, "state": "SA", "name": "Bowmans" }, "geometry": { "type": "Point", "coordinates": [ 138.273256, -34.167519 ] } },
{ "type": "Feature", "properties": { "OBJECTID": 20, "state": "NSW", "name": "Chullora" }, "geometry": { "type": "Point", "coordinates": [ 151.044222, -33.888139 ] } },
{ "type": "Feature", "properties": { "OBJECTID": 21, "state": "NSW", "name": "Enfield" }, "geometry": { "type": "Point", "coordinates": [ 151.073501, -33.896518 ] } },
{ "type": "Feature", "properties": { "OBJECTID": 22, "state": "NSW", "name": "Yennora" }, "geometry": { "type": "Point", "coordinates": [ 150.966667, -33.859722 ] } },
{ "type": "Feature", "properties": { "OBJECTID": 23, "state": "NSW", "name": "Macarthur Intermodal Shipping Terminal" }, "geometry": { "type": "Point", "coordinates": [ 150.841694, -34.035167 ] } },
{ "type": "Feature", "properties": { "OBJECTID": 24, "state": "QLD", "name": "Rockhampton (Pacific National)" }, "geometry": { "type": "Point", "coordinates": [ 150.5046, -23.406029 ] } },
{ "type": "Feature", "properties": { "OBJECTID": 25, "state": "QLD", "name": "Rockhampton (Aurizon)" }, "geometry": { "type": "Point", "coordinates": [ 150.517232, -23.388448 ] } },
{ "type": "Feature", "properties": { "OBJECTID": 26, "state": "QLD", "name": "Mackay (Aurizon)" }, "geometry": { "type": "Point", "coordinates": [ 149.158683, -21.168945 ] } },
{ "type": "Feature", "properties": { "OBJECTID": 27, "state": "QLD", "name": "Mackay (Pacific National)" }, "geometry": { "type": "Point", "coordinates": [ 149.159541, -21.176969 ] } },
{ "type": "Feature", "properties": { "OBJECTID": 28, "state": "QLD", "name": "Townsville (Aurizon)" }, "geometry": { "type": "Point", "coordinates": [ 146.82015, -19.267599 ] } },
{ "type": "Feature", "properties": { "OBJECTID": 29, "state": "QLD", "name": "Acacia Ridge (Pacific National)" }, "geometry": { "type": "Point", "coordinates": [ 153.030623, -27.576468 ] } },
{ "type": "Feature", "properties": { "OBJECTID": 30, "state": "QLD", "name": "Cairns (Pacific National)" }, "geometry": { "type": "Point", "coordinates": [ 145.748608, -16.959832 ] } },
{ "type": "Feature", "properties": { "OBJECTID": 31, "state": "QLD", "name": "Mt Miller (Aurizon)" }, "geometry": { "type": "Point", "coordinates": [ 151.163227, -23.850434 ] } },
{ "type": "Feature", "properties": { "OBJECTID": 32, "state": "QLD", "name": "Cairns (Aurizon)" }, "geometry": { "type": "Point", "coordinates": [ 145.763254, -16.945874 ] } },
{ "type": "Feature", "properties": { "OBJECTID": 33, "state": "QLD", "name": "Stuart (Pacific National)" }, "geometry": { "type": "Point", "coordinates": [ 146.830071, -19.328629 ] } },
{ "type": "Feature", "properties": { "OBJECTID": 34, "state": "QLD", "name": "Brisbane Multimodal Terminal" }, "geometry": { "type": "Point", "coordinates": [ 153.176278, -27.373985 ] } },
{ "type": "Feature", "properties": { "OBJECTID": 35, "state": "QLD", "name": "Moolabin (Pacific National)" }, "geometry": { "type": "Point", "coordinates": [ 153.001464, -27.527924 ] } },
{ "type": "Feature", "properties": { "OBJECTID": 36, "state": "QLD", "name": "Emerald" }, "geometry": { "type": "Point", "coordinates": [ 148.162928, -23.528546 ] } },
{ "type": "Feature", "properties": { "OBJECTID": 37, "state": "QLD", "name": "Cloncurry (Aurizon)" }, "geometry": { "type": "Point", "coordinates": [ 140.526454, -20.718392 ] } },
{ "type": "Feature", "properties": { "OBJECTID": 38, "state": "QLD", "name": "Mount Isa (Aurizon)" }, "geometry": { "type": "Point", "coordinates": [ 139.487058, -20.686956 ] } },
{ "type": "Feature", "properties": { "OBJECTID": 39, "state": "QLD", "name": "Yamala " }, "geometry": { "type": "Point", "coordinates": [ 148.373522, -23.580665 ] } },
{ "type": "Feature", "properties": { "OBJECTID": 40, "state": "WA", "name": "Kalgoorlie (Aurizon)" }, "geometry": { "type": "Point", "coordinates": [ 121.467469, -30.744338 ] } }
]
}
