{
"type": "FeatureCollection",
"crs": { "type": "name", "properties": { "name": "urn:ogc:def:crs:OGC:1.3:CRS84" } },
"features": [
{ "type": "Feature", "properties": { "level_0": 0, "level_1": 0, "OBJECTID": 1, "state": "VIC", "name": "Port of Hastings" }, "geometry": { "type": "Point", "coordinates": [ 145.247673, -38.315651 ] } },
{ "type": "Feature", "properties": { "level_0": 1, "level_1": 0, "OBJECTID": 2, "state": "VIC", "name": "Geelong Port" }, "geometry": { "type": "Point", "coordinates": [ 144.423117, -38.105341 ] } },
{ "type": "Feature", "properties": { "level_0": 2, "level_1": 0, "OBJECTID": 3, "state": "VIC", "name": "Port of Melbourne" }, "geometry": { "type": "Point", "coordinates": [ 144.936665, -37.863357 ] } },
{ "type": "Feature", "properties": { "level_0": 3, "level_1": 0, "OBJECTID": 4, "state": "VIC", "name": "Port of Portland" }, "geometry": { "type": "Point", "coordinates": [ 141.739618, -38.344781 ] } },
{ "type": "Feature", "properties": { "level_0": 4, "level_1": 0, "OBJECTID": 5, "state": "TAS", "name": "Port of Burnie" }, "geometry": { "type": "Point", "coordinates": [ 145.910165, -41.052239 ] } },
{ "type": "Feature", "properties": { "level_0": 5, "level_1": 0, "OBJECTID": 6, "state": "TAS", "name": "Port of Hobart" }, "geometry": { "type": "Point", "coordinates": [ 147.339798, -42.880991 ] } },
{ "type": "Feature", "properties": { "level_0": 6, "level_1": 0, "OBJECTID": 7, "state": "TAS", "name": "Port of Devonport" }, "geometry": { "type": "Point", "coordinates": [ 146.366569, -41.181326 ] } },
{ "type": "Feature", "properties": { "level_0": 7, "level_1": 0, "OBJECTID": 8, "state": "WA", "name": "Port of Ashburton" }, "geometry": { "type": "Point", "coordinates": [ 115.006, -21.6845 ] } },
{ "type": "Feature", "properties": { "level_0": 8, "level_1": 0, "OBJECTID": 9, "state": "TAS", "name": "Port of Launceston (Bell Bay)" }, "geometry": { "type": "Point", "coordinates": [ 146.862731, -41.135451 ] } },
{ "type": "Feature", "properties": { "level_0": 9, "level_1": 0, "OBJECTID": 10, "state": "WA", "name": "Esperance Port" }, "geometry": { "type": "Point", "coordinates": [ 121.899542, -33.871585 ] } },
{ "type": "Feature", "properties": { "level_0": 10, "level_1": 0, "OBJECTID": 11, "state": "WA", "name": "Fremantle Port" }, "geometry": { "type": "Point", "coordinates": [ 115.528279, -32.065114 ] } },
{ "type": "Feature", "properties": { "level_0": 11, "level_1": 0, "OBJECTID": 12, "state": "WA", "name": "Barrow Island Port" }, "geometry": { "type": "Point", "coordinates": [ 115.189784, -20.715396 ] } },
{ "type": "Feature", "properties": { "level_0": 12, "level_1": 0, "OBJECTID": 13, "state": "WA", "name": "Port of Derby" }, "geometry": { "type": "Point", "coordinates": [ 123.6289, -17.30333 ] } },
{ "type": "Feature", "properties": { "level_0": 13, "level_1": 0, "OBJECTID": 14, "state": "WA", "name": "Port of Koolan Island" }, "geometry": { "type": "Point", "coordinates": [ 123.7821, -16.13554 ] } },
{ "type": "Feature", "properties": { "level_0": 14, "level_1": 0, "OBJECTID": 15, "state": "WA", "name": "Onslow Port" }, "geometry": { "type": "Point", "coordinates": [ 115.1133, -21.63814 ] } },
{ "type": "Feature", "properties": { "level_0": 15, "level_1": 0, "OBJECTID": 16, "state": "WA", "name": "Port Thevenard Island" }, "geometry": { "type": "Point", "coordinates": [ 114.781097, -21.301974 ] } },
{ "type": "Feature", "properties": { "level_0": 16, "level_1": 0, "OBJECTID": 17, "state": "WA", "name": "Port of Airlie Island" }, "geometry": { "type": "Point", "coordinates": [ 115.01341, -21.089818 ] } },
{ "type": "Feature", "properties": { "level_0": 17, "level_1": 0, "OBJECTID": 18, "state": "WA", "name": "Port Varanus Island" }, "geometry": { "type": "Point", "coordinates": [ 115.409144, -20.382947 ] } },
{ "type": "Feature", "properties": { "level_0": 18, "level_1": 0, "OBJECTID": 19, "state": "WA", "name": "Port Walcott" }, "geometry": { "type": "Point", "coordinates": [ 117.184582, -20.592405 ] } },
{ "type": "Feature", "properties": { "level_0": 19, "level_1": 0, "OBJECTID": 20, "state": "WA", "name": "Cape Preston Port" }, "geometry": { "type": "Point", "coordinates": [ 116.2061, -20.83234 ] } },
{ "type": "Feature", "properties": { "level_0": 20, "level_1": 0, "OBJECTID": 21, "state": "WA", "name": "Port of Cockatoo Island" }, "geometry": { "type": "Point", "coordinates": [ 123.554641, -16.094373 ] } },
{ "type": "Feature", "properties": { "level_0": 21, "level_1": 0, "OBJECTID": 22, "state": "WA", "name": "Wyndham Port" }, "geometry": { "type": "Point", "coordinates": [ 128.101105, -15.45116 ] } },
{ "type": "Feature", "properties": { "level_0": 22, "level_1": 0, "OBJECTID": 23, "state": "NT", "name": "Darwin Port" }, "geometry": { "type": "Point", "coordinates": [ 130.880426, -12.490889 ] } },
{ "type": "Feature", "properties": { "level_0": 23, "level_1": 0, "OBJECTID": 24, "state": "WA", "name": "Port Kwinana" }, "geometry": { "type": "Point", "coordinates": [ 115.757039, -32.227977 ] } },
{ "type": "Feature", "properties": { "level_0": 24, "level_1": 0, "OBJECTID": 25, "state": "SA", "name": "Port Bonython" }, "geometry": { "type": "Point", "coordinates": [ 137.780499, -32.991238 ] } },
{ "type": "Feature", "properties": { "level_0": 25, "level_1": 0, "OBJECTID": 26, "state": "SA", "name": "Port Lincoln" }, "geometry": { "type": "Point", "coordinates": [ 135.857487, -34.719963 ] } },
{ "type": "Feature", "properties": { "level_0": 26, "level_1": 0, "OBJECTID": 27, "state": "SA", "name": "Port of Whyalla" }, "geometry": { "type": "Point", "coordinates": [ 137.564251, -33.031821 ] } },
{ "type": "Feature", "properties": { "level_0": 27, "level_1": 0, "OBJECTID": 28, "state": "SA", "name": "Port of Thevenard" }, "geometry": { "type": "Point", "coordinates": [ 133.653485, -32.145868 ] } },
{ "type": "Feature", "properties": { "level_0": 28, "level_1": 0, "OBJECTID": 29, "state": "SA", "name": "Port Adelaide" }, "geometry": { "type": "Point", "coordinates": [ 138.483509, -34.77748 ] } },
{ "type": "Feature", "properties": { "level_0": 29, "level_1": 0, "OBJECTID": 30, "state": "NSW", "name": "Port Botany" }, "geometry": { "type": "Point", "coordinates": [ 151.21, -33.972 ] } },
{ "type": "Feature", "properties": { "level_0": 30, "level_1": 0, "OBJECTID": 31, "state": "NSW", "name": "Port Kembla" }, "geometry": { "type": "Point", "coordinates": [ 150.904, -34.467 ] } },
{ "type": "Feature", "properties": { "level_0": 31, "level_1": 0, "OBJECTID": 32, "state": "NSW", "name": "Port of Newcastle" }, "geometry": { "type": "Point", "coordinates": [ 151.777, -32.918 ] } },
{ "type": "Feature", "properties": { "level_0": 32, "level_1": 0, "OBJECTID": 33, "state": "QLD", "name": "Abbot Point Port" }, "geometry": { "type": "Point", "coordinates": [ 148.083, -19.883 ] } },
{ "type": "Feature", "properties": { "level_0": 33, "level_1": 0, "OBJECTID": 34, "state": "QLD", "name": "Port of Hay Point And Dalrymple Bay" }, "geometry": { "type": "Point", "coordinates": [ 149.296584, -21.289903 ] } },
{ "type": "Feature", "properties": { "level_0": 34, "level_1": 0, "OBJECTID": 35, "state": "QLD", "name": "Port of Gladstone" }, "geometry": { "type": "Point", "coordinates": [ 151.269291, -23.836474 ] } },
{ "type": "Feature", "properties": { "level_0": 35, "level_1": 0, "OBJECTID": 36, "state": "QLD", "name": "Mackay Port" }, "geometry": { "type": "Point", "coordinates": [ 149.227545, -21.107002 ] } },
{ "type": "Feature", "properties": { "level_0": 36, "level_1": 0, "OBJECTID": 37, "state": "QLD", "name": "Port of Townsville" }, "geometry": { "type": "Point", "coordinates": [ 146.833636, -19.249287 ] } },
{ "type": "Feature", "properties": { "level_0": 37, "level_1": 0, "OBJECTID": 38, "state": "QLD", "name": "Port of Brisbane" }, "geometry": { "type": "Point", "coordinates": [ 153.181278, -27.353855 ] } },
{ "type": "Feature", "properties": { "level_0": 38, "level_1": 0, "OBJECTID": 39, "state": "WA", "name": "Port of Broome" }, "geometry": { "type": "Point", "coordinates": [ 122.210312, -18.003644 ] } },
{ "type": "Feature", "properties": { "level_0": 39, "level_1": 0, "OBJECTID": 40, "state": "WA", "name": "Port Hedland" }, "geometry": { "type": "Point", "coordinates": [ 118.575419, -20.311625 ] } },
{ "type": "Feature", "properties": { "level_0": 40, "level_1": 0, "OBJECTID": 41, "state": "WA", "name": "Port of Dampier" }, "geometry": { "type": "Point", "coordinates": [ 116.703704, -20.662989 ] } },
{ "type": "Feature", "properties": { "level_0": 41, "level_1": 0, "OBJECTID": 42, "state": "WA", "name": "Port of Geraldton" }, "geometry": { "type": "Point", "coordinates": [ 114.592703, -28.774868 ] } },
{ "type": "Feature", "properties": { "level_0": 42, "level_1": 0, "OBJECTID": 43, "state": "WA", "name": "Port of Bunbury" }, "geometry": { "type": "Point", "coordinates": [ 115.638243, -33.316816 ] } },
{ "type": "Feature", "properties": { "level_0": 43, "level_1": 0, "OBJECTID": 44, "state": "WA", "name": "Albany Port" }, "geometry": { "type": "Point", "coordinates": [ 117.911885, -35.034956 ] } },
{ "type": "Feature", "properties": { "level_0": 44, "level_1": 0, "OBJECTID": 45, "state": "QLD", "name": "Port of Weipa" }, "geometry": { "type": "Point", "coordinates": [ 141.86918, -12.67157 ] } },
{ "type": "Feature", "properties": { "level_0": 45, "level_1": 0, "OBJECTID": 46, "state": "NT", "name": "Amrun" }, "geometry": { "type": "Point", "coordinates": [ 141.62135, -12.929824 ] } },
{ "type": "Feature", "properties": { "level_0": 46, "level_1": 0, "OBJECTID": 47, "state": "QLD", "name": "Port of Bundaberg" }, "geometry": { "type": "Point", "coordinates": [ 152.381987, -24.77066 ] } }
]
}
